%  GPST                      x-ecef(m)      y-ecef(m)      z-ecef(m)   Q  ns   sdx(m)   sdy(m)   sdz(m)  sdxy(m)  sdyz(m)  sdzx(m) age(s)  ratio
2025/09/12 07:43:37.000  -1178647.7007   5839690.2213   2271934.7507   1  12   0.0051   0.0121   0.0058  -0.0057   0.0053  -0.0034   1.00    5.6
2025/09/12 07:43:38.000  -1178647.7021   5839690.2234   2271934.7504   1  12   0.0049   0.0119   0.0058  -0.0055   0.0052  -0.0034   0.00    5.9
2025/09/12 07:43:39.000  -1178647.7019   5839690.2205   2271934.7499   1  12   0.0051   0.0119   0.0058  -0.0056   0.0052  -0.0034   0.00    5.7
2025/09/12 07:43:40.000  -1178647.7024   5839690.2243   2271934.7523   1  12   0.0050   0.0119   0.0057  -0.0054   0.0053  -0.0034   0.00    5.9
2025/09/12 07:43:41.000  -1178647.7018   5839690.2235   2271934.7522   1  12   0.0050   0.0121   0.0059  -0.0057   0.0053  -0.0035   1.00    6.1
2025/09/12 07:43:42.000  -1178647.7022   5839690.2194   2271934.7486   1  12   0.0050   0.0119   0.0058  -0.0056   0.0053  -0.0034   0.00    6.1
2025/09/12 07:43:43.000  -1178647.7011   5839690.2210   2271934.7494   1  12   0.0050   0.0119   0.0056  -0.0056   0.0052  -0.0033   0.00    6.1
2025/09/12 07:43:44.000  -1178647.6983   5839690.2158   2271934.7480   1  12   0.0049   0.0119   0.0059  -0.0054   0.0054  -0.0031   0.00    5.9
2025/09/12 07:43:45.000  -1178647.6995   5839690.2182   2271934.7482   1  12   0.0051   0.0121   0.0058  -0.0056   0.0054  -0.0035   1.00    5.9
2025/09/12 07:43:46.000  -1178647.6991   5839690.2167   2271934.7476   1  12   0.0050   0.0119   0.0058  -0.0054   0.0052  -0.0033   0.00    5.9
2025/09/12 07:43:47.000  -1178647.6997   5839690.2181   2271934.7487   1  12   0.0047   0.0119   0.0057  -0.0056   0.0053  -0.0035   0.00   17.9
2025/09/12 07:43:48.000  -1178647.6982   5839690.2133   2271934.7465   1  12   0.0047   0.0119   0.0057  -0.0056   0.0053  -0.0034   0.00   22.3
2025/09/12 07:43:49.000  -1178647.6976   5839690.2142   2271934.7454   1  12   0.0055   0.0119   0.0058  -0.0054   0.0052  -0.0035   0.00   25.9
2025/09/12 07:43:50.000  -1178647.6969   5839690.2129   2271934.7407   1  12   0.0053   0.0119   0.0058  -0.0055   0.0054  -0.0033   0.00   29.7
2025/09/12 07:43:51.000  -1178647.6981   5839690.2136   2271934.7443   1  12   0.0050   0.0121   0.0058  -0.0056   0.0053  -0.0035   1.00   33.0
2025/09/12 07:43:52.000  -1178647.6981   5839690.2135   2271934.7419   1  12   0.0049   0.0119   0.0058  -0.0054   0.0053  -0.0032   0.00   35.8
2025/09/12 07:43:53.000  -1178647.6976   5839690.2151   2271934.7431   1  12   0.0049   0.0121   0.0058  -0.0057   0.0052  -0.0035   1.00   38.6
2025/09/12 07:43:54.000  -1178647.6983   5839690.2167   2271934.7434   1  12   0.0052   0.0119   0.0058  -0.0055   0.0052  -0.0033   0.00   41.1
2025/09/12 07:43:55.000  -1178647.6975   5839690.2116   2271934.7431   1  12   0.0052   0.0121   0.0059  -0.0057   0.0053  -0.0034   1.00   43.5
2025/09/12 07:43:56.000  -1178647.6981   5839690.2174   2271934.7405   1  12   0.0049   0.0118   0.0055  -0.0057   0.0052  -0.0036   0.00   45.5
2025/09/12 07:43:57.000  -1178647.6974   5839690.2140   2271934.7387   1  12   0.0050   0.0119   0.0057  -0.0057   0.0050  -0.0035   0.00   47.4
2025/09/12 07:43:58.000  -1178647.6965   5839690.2125   2271934.7385   1  12   0.0045   0.0119   0.0057  -0.0058   0.0052  -0.0034   0.00   49.6
2025/09/12 07:43:59.000  -1178647.6969   5839690.2163   2271934.7389   1  12   0.0049   0.0119   0.0055  -0.0056   0.0051  -0.0035   0.00   51.5
2025/09/12 07:44:00.000  -1178647.6985   5839690.2161   2271934.7380   1  12   0.0050   0.0119   0.0057  -0.0055   0.0050  -0.0035   0.00   53.5
2025/09/12 07:44:01.000  -1178647.6960   5839690.2157   2271934.7386   1  17   0.0051   0.0121   0.0058  -0.0056   0.0054  -0.0033   1.00   55.2
2025/09/12 07:44:02.000  -1178647.7113   5839690.1330   2271934.7415   1  17   0.0047   0.0113   0.0053  -0.0054   0.0053  -0.0032   0.00   56.8
2025/09/12 07:44:03.000  -1178647.7171   5839690.0973   2271934.7452   1  17   0.0046   0.0111   0.0046  -0.0053   0.0053  -0.0033   0.00   58.4
2025/09/12 07:44:04.000  -1178647.7242   5839690.0663   2271934.7474   1  17   0.0049   0.0110   0.0053  -0.0053   0.0052  -0.0028   0.00   59.5
2025/09/12 07:44:05.000  -1178647.7278   5839690.0295   2271934.7475   1  17   0.0042   0.0110   0.0049  -0.0051   0.0057  -0.0027   0.00   60.5
2025/09/12 07:44:06.000  -1178647.7310   5839690.0001   2271934.7504   1  17   0.0043   0.0109   0.0040  -0.0051   0.0055  -0.0037   0.00   61.9
2025/09/12 07:44:07.000  -1178647.7338   5839690.0067   2271934.7543   1  17   0.0033   0.0110   0.0039  -0.0052   0.0057  -0.0038   1.00   63.5
2025/09/12 07:44:08.000  -1178647.7419   5839689.9479   2271934.7562   1  17   0.0047   0.0109   0.0049  -0.0052   0.0055  -0.0028   0.00   64.0
2025/09/12 07:44:09.000  -1178647.7462   5839689.9199   2271934.7588   1  17   0.0046   0.0108   0.0045  -0.0052   0.0058  -0.0034   0.00   65.0
2025/09/12 07:44:10.000  -1178647.7486   5839689.8932   2271934.7595   1  17   0.0040   0.0108   0.0048  -0.0051   0.0056  -0.0029   0.00   65.1
2025/09/12 07:44:11.000  -1178647.7529   5839689.8713   2271934.7610   1  17   0.0040   0.0108   0.0045  -0.0049   0.0056  -0.0035   0.00   65.8
2025/09/12 07:44:12.000  -1178647.7557   5839689.8485   2271934.7624   1  17   0.0045   0.0108   0.0050  -0.0052   0.0055  -0.0020   0.00   66.8
2025/09/12 07:44:13.000  -1178647.7559   5839689.8487   2271934.7632   1  17   0.0046   0.0111   0.0055  -0.0052   0.0054  -0.0028   1.00   67.5
2025/09/12 07:44:14.000  -1178647.7651   5839689.8141   2271934.7686   1  17   0.0046   0.0108   0.0044  -0.0053   0.0053  -0.0028   0.00   67.8
2025/09/12 07:44:15.000  -1178647.7628   5839689.8102   2271934.7686   1  17   0.0041   0.0110   0.0046  -0.0049   0.0060  -0.0039   1.00   68.4
2025/09/12 07:44:16.000  -1178647.7677   5839689.7698   2271934.7699   1  17   0.0024   0.0108   0.0043  -0.0050   0.0057  -0.0036   0.00   69.1
2025/09/12 07:44:17.000  -1178647.7702   5839689.7509   2271934.7710   1  17   0.0041   0.0108   0.0041  -0.0049   0.0056  -0.0041   0.00   69.5
2025/09/12 07:44:18.000  -1178647.7700   5839689.7518   2271934.7727   1  17   0.0042   0.0110   0.0045  -0.0053   0.0057  -0.0029   1.00   70.1
2025/09/12 07:44:19.000  -1178647.7761   5839689.7131   2271934.7718   1  17   0.0044   0.0107   0.0045  -0.0050   0.0058  -0.0035   0.00   70.6
2025/09/12 07:44:20.000  -1178647.7774   5839689.6986   2271934.7755   1  17   0.0037   0.0107   0.0041  -0.0051   0.0059  -0.0037   0.00   70.9
2025/09/12 07:44:21.000  -1178647.7812   5839689.7070   2271934.7742   1  17   0.0046   0.0109   0.0048  -0.0053   0.0057  -0.0034   1.00    5.8
2025/09/12 07:44:22.000  -1178647.7856   5839689.6708   2271934.7722   1  17   0.0044   0.0107   0.0047  -0.0051   0.0054  -0.0033   0.00    6.7
2025/09/12 07:44:23.000  -1178647.7844   5839689.6677   2271934.7727   1  17   0.0034   0.0110   0.0052  -0.0048   0.0056  -0.0030   1.00    7.4
2025/09/12 07:44:24.000  -1178647.7894   5839689.6393   2271934.7747   1  17   0.0039   0.0107   0.0042  -0.0049   0.0058  -0.0032   0.00    8.2
2025/09/12 07:44:25.000  -1178647.7896   5839689.6362   2271934.7750   1  17   0.0048   0.0109   0.0050  -0.0053   0.0057  -0.0029   1.00    9.0
2025/09/12 07:44:26.000  -1178647.7917   5839689.6118   2271934.7738   1  17   0.0041   0.0107   0.0050  -0.0052   0.0057  -0.0023   0.00    9.7
2025/09/12 07:44:27.000  -1178647.7931   5839689.6151   2271934.7763   1  17   0.0039   0.0110   0.0048  -0.0054   0.0054  -0.0026   1.00   10.3
2025/09/12 07:44:28.000  -1178647.7941   5839689.5895   2271934.7767   1  17   0.0039   0.0108   0.0044  -0.0050   0.0056  -0.0033   0.00   11.0
2025/09/12 07:44:29.000  -1178647.7962   5839689.5753   2271934.7759   1  17   0.0041   0.0108   0.0040  -0.0050   0.0056  -0.0032   0.00   11.6
2025/09/12 07:44:30.000  -1178647.7959   5839689.5591   2271934.7762   1  17   0.0043   0.0107   0.0048  -0.0053   0.0053  -0.0030   0.00   12.2
2025/09/12 07:44:31.000  -1178647.7964   5839689.5625   2271934.7774   1  17   0.0035   0.0109   0.0047  -0.0052   0.0057  -0.0031   1.00   12.8
2025/09/12 07:44:32.000  -1178647.8010   5839689.5380   2271934.7768   1  17   0.0050   0.0108   0.0054  -0.0050   0.0054  -0.0024   0.00   13.5
2025/09/12 07:44:33.000  -1178647.8024   5839689.5282   2271934.7765   1  17   0.0038   0.0107   0.0033  -0.0049   0.0059  -0.0031   0.00   14.0
2025/09/12 07:44:34.000  -1178647.8033   5839689.5171   2271934.7790   1  17   0.0049   0.0107   0.0041  -0.0053   0.0055  -0.0026   0.00   14.6
2025/09/12 07:44:35.000  -1178647.8041   5839689.5080   2271934.7786   1  17   0.0049   0.0107   0.0049  -0.0050   0.0057  -0.0029   0.00   15.1
2025/09/12 07:44:36.000  -1178647.8042   5839689.4972   2271934.7795   1  17   0.0039   0.0107   0.0048  -0.0049   0.0057  -0.0029   0.00   15.6
2025/09/12 07:44:37.000  -1178647.8054   5839689.4837   2271934.7791   1  17   0.0043   0.0107   0.0042  -0.0052   0.0055  -0.0029   0.00   16.1
2025/09/12 07:44:38.000  -1178647.8060   5839689.4755   2271934.7785   1  17   0.0040   0.0107   0.0046  -0.0050   0.0054  -0.0031   0.00   16.6
2025/09/12 07:44:39.000  -1178647.8081   5839689.4694   2271934.7807   1  17   0.0035   0.0107   0.0041  -0.0049   0.0056  -0.0037   0.00   17.0
2025/09/12 07:44:40.000  -1178647.8076   5839689.4620   2271934.7803   1  17   0.0042   0.0107   0.0036  -0.0049   0.0057  -0.0040   0.00   17.5
2025/09/12 07:44:41.000  -1178647.8090   5839689.4497   2271934.7802   1  17   0.0046   0.0107   0.0044  -0.0050   0.0058  -0.0027   0.00   18.0
2025/09/12 07:44:42.000  -1178647.8094   5839689.4428   2271934.7804   1  17   0.0051   0.0108   0.0049  -0.0053   0.0053  -0.0020   0.00   18.5
2025/09/12 07:44:43.000  -1178647.8087   5839689.4430   2271934.7806   1  17   0.0048   0.0110   0.0049  -0.0051   0.0056  -0.0036   1.00   18.9
2025/09/12 07:44:44.000  -1178647.8133   5839689.4300   2271934.7815   1  17   0.0043   0.0108   0.0047  -0.0052   0.0052  -0.0021   0.00   19.4
2025/09/12 07:44:45.000  -1178647.8116   5839689.4172   2271934.7822   1  17   0.0050   0.0108   0.0047  -0.0050   0.0057  -0.0027   0.00   19.9
2025/09/12 07:44:46.000  -1178647.8117   5839689.4081   2271934.7800   1  17   0.0041   0.0108   0.0058  -0.0052   0.0051  -0.0020   0.00   20.3
2025/09/12 07:44:47.000  -1178647.8138   5839689.4034   2271934.7842   1  17   0.0033   0.0107   0.0044  -0.0051   0.0055  -0.0026   0.00   20.7
2025/09/12 07:44:48.000  -1178647.8145   5839689.3943   2271934.7820   1  17   0.0048   0.0107   0.0049  -0.0054   0.0053  -0.0008   0.00   21.2
2025/09/12 07:44:49.000  -1178647.8128   5839689.3862   2271934.7823   1  17   0.0039   0.0108   0.0045  -0.0050   0.0055  -0.0036   0.00   21.5
2025/09/12 07:44:50.000  -1178647.8159   5839689.3818   2271934.7833   1  17   0.0041   0.0108   0.0043  -0.0050   0.0054  -0.0039   0.00   21.9
2025/09/12 07:44:51.000  -1178647.8162   5839689.3804   2271934.7848   1  17   0.0039   0.0110   0.0040  -0.0050   0.0058  -0.0038   1.00   22.2
2025/09/12 07:44:52.000  -1178647.8172   5839689.3697   2271934.7843   1  17   0.0044   0.0107   0.0051  -0.0049   0.0059  -0.0026   0.00   22.6
2025/09/12 07:44:53.000  -1178647.8158   5839689.3651   2271934.7834   1  17   0.0046   0.0110   0.0042  -0.0052   0.0057  -0.0025   1.00   22.9
2025/09/12 07:44:54.000  -1178647.8170   5839689.3540   2271934.7846   1  17   0.0051   0.0107   0.0050  -0.0051   0.0058  -0.0023   0.00   23.2
2025/09/12 07:44:55.000  -1178647.8163   5839689.3391   2271934.7810   1  17   0.0041   0.0107   0.0045  -0.0050   0.0059  -0.0032   0.00   23.5
2025/09/12 07:44:56.000  -1178647.8188   5839689.3409   2271934.7842   1  17   0.0047   0.0108   0.0051  -0.0053   0.0053  -0.0028   0.00   23.7
2025/09/12 07:44:57.000  -1178647.8198   5839689.3417   2271934.7868   1  17   0.0038   0.0109   0.0043  -0.0053   0.0059  -0.0027   1.00   24.0
2025/09/12 07:44:58.000  -1178647.8187   5839689.3248   2271934.7821   1  17   0.0039   0.0107   0.0050  -0.0051   0.0055  -0.0024   0.00   24.3
2025/09/12 07:44:59.000  -1178647.8198   5839689.3212   2271934.7835   1  17   0.0041   0.0107   0.0043  -0.0053   0.0055  -0.0030   0.00   24.6
2025/09/12 07:45:00.000  -1178647.8185   5839689.3086   2271934.7817   1  17   0.0043   0.0108   0.0043  -0.0054   0.0052  -0.0031   0.00   24.9
2025/09/12 07:45:01.000  -1178647.8199   5839689.3047   2271934.7811   1  17   0.0043   0.0109   0.0050  -0.0049   0.0051  -0.0041   0.00   25.1
2025/09/12 07:45:02.000  -1178647.8174   5839689.2912   2271934.7767   1  17   0.0034   0.0108   0.0044  -0.0052   0.0054  -0.0034   0.00   25.5
2025/09/12 07:45:03.000  -1178647.8179   5839689.2847   2271934.7758   1  17   0.0046   0.0108   0.0049  -0.0053   0.0054  -0.0029   0.00   25.7
2025/09/12 07:45:04.000  -1178647.8190   5839689.2827   2271934.7769   1  17   0.0040   0.0108   0.0037  -0.0049   0.0059  -0.0033   0.00   26.0
2025/09/12 07:45:05.000  -1178647.8177   5839689.2830   2271934.7796   1  17   0.0047   0.0110   0.0052  -0.0052   0.0055  -0.0033   1.00   26.3
2025/09/12 07:45:06.000  -1178647.8156   5839689.2622   2271934.7710   1  17   0.0048   0.0108   0.0043  -0.0049   0.0056  -0.0033   0.00   26.5
2025/09/12 07:45:07.000  -1178647.8158   5839689.2558   2271934.7717   1  17   0.0044   0.0107   0.0046  -0.0052   0.0055  -0.0029   0.00   26.7
2025/09/12 07:45:08.000  -1178647.8149   5839689.2478   2271934.7692   1  17   0.0042   0.0107   0.0050  -0.0051   0.0055  -0.0039   0.00   26.9
2025/09/12 07:45:09.000  -1178647.8158   5839689.2449   2271934.7680   1  17   0.0042   0.0107   0.0035  -0.0052   0.0057  -0.0033   0.00   27.2
2025/09/12 07:45:10.000  -1178647.8160   5839689.2350   2271934.7679   1  17   0.0040   0.0107   0.0051  -0.0054   0.0054  -0.0014   0.00   27.4
2025/09/12 07:45:11.000  -1178647.8179   5839689.2411   2271934.7694   1  17   0.0044   0.0110   0.0045  -0.0053   0.0057  -0.0025   1.00   27.7
2025/09/12 07:45:12.000  -1178647.8155   5839689.2213   2271934.7652   1  17   0.0041   0.0108   0.0053  -0.0053   0.0053  -0.0027   0.00   27.9
2025/09/12 07:45:13.000  -1178647.8167   5839689.2174   2271934.7648   1  17   0.0043   0.0108   0.0042  -0.0051   0.0057  -0.0027   0.00   28.2
2025/09/12 07:45:14.000  -1178647.8157   5839689.2096   2271934.7614   1  17   0.0044   0.0107   0.0045  -0.0051   0.0057  -0.0025   0.00   28.4
2025/09/12 07:45:15.000  -1178647.8170   5839689.2031   2271934.7600   1  17   0.0044   0.0108   0.0048  -0.0050   0.0056  -0.0031   0.00   28.5
2025/09/12 07:45:16.000  -1178647.8164   5839689.1976   2271934.7588   1  17   0.0046   0.0108   0.0050  -0.0049   0.0057  -0.0020   0.00   28.7
2025/09/12 07:45:17.000  -1178647.8158   5839689.1964   2271934.7593   1  17   0.0037   0.0108   0.0058  -0.0051   0.0055  -0.0025   0.00   28.8
2025/09/12 07:45:18.000  -1178647.8128   5839689.1820   2271934.7540   1  17   0.0042   0.0107   0.0045  -0.0054   0.0056  -0.0026   0.00   29.0
2025/09/12 07:45:19.000  -1178647.8132   5839689.1826   2271934.7550   1  17   0.0040   0.0110   0.0043  -0.0053   0.0058  -0.0026   1.00   29.1
2025/09/12 07:45:20.000  -1178647.8141   5839689.1711   2271934.7526   1  17   0.0042   0.0108   0.0038  -0.0051   0.0057  -0.0033   0.00   29.2
2025/09/12 07:45:21.000  -1178647.8121   5839689.1712   2271934.7542   1  17   0.0048   0.0110   0.0055  -0.0053   0.0054  -0.0016   1.00   29.3
2025/09/12 07:45:22.000  -1178647.8160   5839689.1669   2271934.7535   1  17   0.0042   0.0107   0.0050  -0.0053   0.0056  -0.0029   0.00   29.5
2025/09/12 07:45:23.000  -1178647.8136   5839689.1647   2271934.7530   1  17   0.0044   0.0110   0.0047  -0.0050   0.0058  -0.0028   1.00   29.6
2025/09/12 07:45:24.000  -1178647.8164   5839689.1599   2271934.7512   1  17   0.0039   0.0110   0.0045  -0.0052   0.0058  -0.0027   1.00   29.7
2025/09/12 07:45:25.000  -1178647.8160   5839689.1499   2271934.7488   1  17   0.0043   0.0108   0.0034  -0.0049   0.0057  -0.0034   0.00   29.8
2025/09/12 07:45:26.000  -1178647.8151   5839689.1430   2271934.7477   1  17   0.0039   0.0107   0.0033  -0.0050   0.0058  -0.0036   0.00   30.0
2025/09/12 07:45:27.000  -1178647.8149   5839689.1408   2271934.7468   1  17   0.0049   0.0108   0.0050  -0.0049   0.0055  -0.0041   0.00   30.1
2025/09/12 07:45:28.000  -1178647.8141   5839689.1366   2271934.7447   1  17   0.0043   0.0107   0.0058  -0.0054   0.0055  -0.0027   0.00   30.2
2025/09/12 07:45:29.000  -1178647.8161   5839689.1379   2271934.7460   1  17   0.0046   0.0108   0.0051  -0.0053   0.0056  -0.0018   0.00   30.4
2025/09/12 07:45:30.000  -1178647.8151   5839689.1246   2271934.7421   1  17   0.0046   0.0107   0.0042  -0.0050   0.0059  -0.0030   0.00   30.5
2025/09/12 07:45:31.000  -1178647.8156   5839689.1258   2271934.7443   1  17   0.0041   0.0109   0.0036  -0.0051   0.0060  -0.0039   1.00   30.7
2025/09/12 07:45:32.000  -1178647.8161   5839689.1186   2271934.7419   1  17   0.0044   0.0107   0.0046  -0.0053   0.0055  -0.0035   0.00   30.9
2025/09/12 07:45:33.000  -1178647.8151   5839689.1109   2271934.7415   1  17   0.0047   0.0108   0.0049  -0.0051   0.0057  -0.0022   0.00   30.9
2025/09/12 07:45:34.000  -1178647.8148   5839689.1109   2271934.7403   1  17   0.0039   0.0108   0.0039  -0.0050   0.0058  -0.0027   0.00   31.0
2025/09/12 07:45:35.000  -1178647.8139   5839689.1056   2271934.7386   1  17   0.0043   0.0108   0.0042  -0.0052   0.0056  -0.0032   0.00   31.1
2025/09/12 07:45:36.000  -1178647.8157   5839689.1014   2271934.7386   1  17   0.0042   0.0108   0.0051  -0.0051   0.0056  -0.0036   0.00   31.1
2025/09/12 07:45:37.000  -1178647.8148   5839689.0958   2271934.7359   1  17   0.0039   0.0108   0.0045  -0.0050   0.0057  -0.0029   0.00   31.2
2025/09/12 07:45:38.000  -1178647.8143   5839689.0978   2271934.7378   1  17   0.0041   0.0110   0.0040  -0.0051   0.0059  -0.0033   1.00   31.3
2025/09/12 07:45:39.000  -1178647.8141   5839689.0853   2271934.7336   1  17   0.0041   0.0107   0.0036  -0.0051   0.0059  -0.0030   0.00   31.4
2025/09/12 07:45:40.000  -1178647.8151   5839689.0870   2271934.7337   1  17   0.0047   0.0108   0.0048  -0.0052   0.0056  -0.0027   0.00   31.5
2025/09/12 07:45:41.000  -1178647.8142   5839689.0874   2271934.7375   1  17   0.0046   0.0110   0.0045  -0.0054   0.0055  -0.0016   1.00   31.5
2025/09/12 07:45:42.000  -1178647.8168   5839689.0842   2271934.7344   1  17   0.0044   0.0110   0.0045  -0.0050   0.0058  -0.0039   1.00   31.6
2025/09/12 07:45:43.000  -1178647.8149   5839689.0755   2271934.7342   1  17   0.0046   0.0109   0.0051  -0.0051   0.0052  -0.0032   0.00   31.6
2025/09/12 07:45:44.000  -1178647.8169   5839689.0732   2271934.7322   1  17   0.0044   0.0109   0.0047  -0.0049   0.0056  -0.0036   0.00   31.7
2025/09/12 07:45:45.000  -1178647.8154   5839689.0658   2271934.7304   1  17   0.0046   0.0107   0.0051  -0.0052   0.0057  -0.0023   0.00   31.7
2025/09/12 07:45:46.000  -1178647.8167   5839689.0653   2271934.7293   1  17   0.0044   0.0108   0.0043  -0.0052   0.0057  -0.0021   0.00   31.8
2025/09/12 07:45:47.000  -1178647.8168   5839689.0602   2271934.7282   1  17   0.0042   0.0108   0.0052  -0.0051   0.0056  -0.0027   0.00   31.8
2025/09/12 07:45:48.000  -1178647.8188   5839689.0620   2271934.7288   1  17   0.0042   0.0108   0.0038  -0.0050   0.0056  -0.0039   0.00   31.9
2025/09/12 07:45:49.000  -1178647.8169   5839689.0553   2271934.7274   1  17   0.0042   0.0108   0.0052  -0.0051   0.0054  -0.0039   0.00   32.0
2025/09/12 07:45:50.000  -1178647.8176   5839689.0586   2271934.7295   1  17   0.0042   0.0110   0.0044  -0.0053   0.0058  -0.0035   1.00   32.0
2025/09/12 07:45:51.000  -1178647.8151   5839689.0454   2271934.7253   1  17   0.0041   0.0108   0.0042  -0.0052   0.0056  -0.0026   0.00   32.1
2025/09/12 07:45:52.000  -1178647.8159   5839689.0435   2271934.7257   1  17   0.0038   0.0108   0.0061  -0.0051   0.0055  -0.0032   0.00   32.2
2025/09/12 07:45:53.000  -1178647.8180   5839689.0422   2271934.7258   1  17   0.0042   0.0107   0.0039  -0.0053   0.0057  -0.0037   0.00   32.3
2025/09/12 07:45:54.000  -1178647.8176   5839689.0407   2271934.7253   1  17   0.0037   0.0108   0.0049  -0.0049   0.0058  -0.0037   0.00   32.4
2025/09/12 07:45:55.000  -1178647.8169   5839689.0346   2271934.7242   1  17   0.0046   0.0108   0.0044  -0.0052   0.0058  -0.0022   0.00   32.5
2025/09/12 07:45:56.000  -1178647.8172   5839689.0285   2271934.7227   1  17   0.0048   0.0108   0.0034  -0.0053   0.0056  -0.0034   0.00   32.5
2025/09/12 07:45:57.000  -1178647.8156   5839689.0248   2271934.7232   1  17   0.0044   0.0108   0.0048  -0.0050   0.0057  -0.0035   0.00   32.6
2025/09/12 07:45:58.000  -1178647.8170   5839689.0206   2271934.7211   1  17   0.0043   0.0108   0.0025  -0.0049   0.0058  -0.0037   0.00   32.7
2025/09/12 07:45:59.000  -1178647.8163   5839689.0205   2271934.7225   1  17   0.0046   0.0108   0.0038  -0.0051   0.0059  -0.0036   0.00   32.8
2025/09/12 07:46:00.000  -1178647.8167   5839689.0256   2271934.7247   1  17   0.0044   0.0111   0.0051  -0.0052   0.0056  -0.0030   1.00   32.9
2025/09/12 07:46:01.000  -1178647.8174   5839689.0171   2271934.7213   1  17   0.0039   0.0107   0.0036  -0.0052   0.0058  -0.0014   0.00   33.0
2025/09/12 07:46:02.000  -1178647.8184   5839689.0133   2271934.7220   1  17   0.0041   0.0108   0.0049  -0.0049   0.0057  -0.0040   0.00   33.0
2025/09/12 07:46:03.000  -1178647.8207   5839689.0168   2271934.7240   1  17   0.0046   0.0110   0.0048  -0.0050   0.0059  -0.0038   1.00   33.1
2025/09/12 07:46:04.000  -1178647.8172   5839689.0033   2271934.7189   1  17   0.0038   0.0108   0.0050  -0.0053   0.0056  -0.0031   0.00   33.2
2025/09/12 07:46:05.000  -1178647.8161   5839689.0022   2271934.7180   1  17   0.0052   0.0108   0.0051  -0.0053   0.0055  -0.0014   0.00   33.3
2025/09/12 07:46:06.000  -1178647.8168   5839689.0009   2271934.7191   1  17   0.0042   0.0109   0.0050  -0.0051   0.0053  -0.0035   0.00   33.5
2025/09/12 07:46:07.000  -1178647.8165   5839688.9960   2271934.7186   1  17   0.0043   0.0108   0.0036  -0.0051   0.0058  -0.0033   0.00   33.5
2025/09/12 07:46:08.000  -1178647.8168   5839688.9940   2271934.7166   1  17   0.0043   0.0108   0.0044  -0.0052   0.0058  -0.0023   0.00   33.6
2025/09/12 07:46:09.000  -1178647.8176   5839688.9933   2271934.7190   1  17   0.0040   0.0108   0.0044  -0.0051   0.0057  -0.0028   0.00   33.7
2025/09/12 07:46:10.000  -1178647.8184   5839688.9920   2271934.7186   1  17   0.0048   0.0109   0.0052  -0.0053   0.0055  -0.0028   0.00   33.8
2025/09/12 07:46:11.000  -1178647.8176   5839688.9888   2271934.7175   1  17   0.0044   0.0108   0.0046  -0.0053   0.0057  -0.0023   0.00   33.8
2025/09/12 07:46:12.000  -1178647.8180   5839688.9838   2271934.7170   1  17   0.0042   0.0108   0.0044  -0.0051   0.0058  -0.0037   0.00   34.0
2025/09/12 07:46:13.000  -1178647.8175   5839688.9790   2271934.7148   1  17   0.0046   0.0108   0.0045  -0.0052   0.0056  -0.0038   0.00   34.0
2025/09/12 07:46:14.000  -1178647.8191   5839688.9829   2271934.7173   1  17   0.0042   0.0109   0.0054  -0.0052   0.0054  -0.0027   0.00   34.1
2025/09/12 07:46:15.000  -1178647.8177   5839688.9753   2271934.7163   1  17   0.0038   0.0108   0.0051  -0.0050   0.0054  -0.0034   0.00   34.2
2025/09/12 07:46:16.000  -1178647.8178   5839688.9740   2271934.7153   1  17   0.0043   0.0109   0.0054  -0.0049   0.0055  -0.0034   0.00   34.3
2025/09/12 07:46:17.000  -1178647.8200   5839688.9770   2271934.7181   1  17   0.0046   0.0108   0.0054  -0.0052   0.0056  -0.0013   0.00   34.4
2025/09/12 07:46:18.000  -1178647.8171   5839688.9698   2271934.7162   1  17   0.0044   0.0108   0.0034  -0.0051   0.0057  -0.0037   0.00   34.5
2025/09/12 07:46:19.000  -1178647.8157   5839688.9698   2271934.7176   1  17   0.0048   0.0110   0.0047  -0.0052   0.0058  -0.0027   1.00   34.6
2025/09/12 07:46:20.000  -1178647.8167   5839688.9667   2271934.7184   1  17   0.0046   0.0111   0.0045  -0.0050   0.0059  -0.0030   1.00   34.7
2025/09/12 07:46:21.000  -1178647.8179   5839688.9610   2271934.7167   1  17   0.0041   0.0107   0.0032  -0.0050   0.0059  -0.0037   0.00   34.8
2025/09/12 07:46:22.000  -1178647.8169   5839688.9576   2271934.7158   1  17   0.0042   0.0107   0.0037  -0.0053   0.0058  -0.0032   0.00   34.8
2025/09/12 07:46:23.000  -1178647.8172   5839688.9575   2271934.7156   1  17   0.0045   0.0109   0.0052  -0.0050   0.0056  -0.0034   0.00   34.9
2025/09/12 07:46:24.000  -1178647.8178   5839688.9594   2271934.7181   1  17   0.0050   0.0111   0.0050  -0.0054   0.0054  -0.0025   1.00   35.0
2025/09/12 07:46:25.000  -1178647.8190   5839688.9603   2271934.7171   1  17   0.0044   0.0110   0.0043  -0.0052   0.0059  -0.0031   1.00   35.1
2025/09/12 07:46:26.000  -1178647.8175   5839688.9470   2271934.7151   1  17   0.0042   0.0108   0.0057  -0.0052   0.0054  -0.0035   0.00   35.1
2025/09/12 07:46:27.000  -1178647.8194   5839688.9493   2271934.7149   1  17   0.0045   0.0108   0.0050  -0.0051   0.0055  -0.0037   0.00   35.2
2025/09/12 07:46:28.000  -1178647.8196   5839688.9492   2271934.7154   1  17   0.0048   0.0109   0.0043  -0.0050   0.0056  -0.0036   0.00   35.3
2025/09/12 07:46:29.000  -1178647.8174   5839688.9439   2271934.7135   1  17   0.0046   0.0108   0.0044  -0.0051   0.0057  -0.0040   0.00   35.4
2025/09/12 07:46:30.000  -1178647.8197   5839688.9469   2271934.7166   1  17   0.0047   0.0111   0.0036  -0.0050   0.0058  -0.0036   1.00   35.4
2025/09/12 07:46:31.000  -1178647.8190   5839688.9408   2271934.7144   1  17   0.0042   0.0108   0.0047  -0.0051   0.0056  -0.0024   0.00   35.5
2025/09/12 07:46:32.000  -1178647.8191   5839688.9396   2271934.7146   1  17   0.0046   0.0108   0.0044  -0.0053   0.0055  -0.0033   0.00   35.5
2025/09/12 07:46:33.000  -1178647.8194   5839688.9426   2271934.7151   1  17   0.0045   0.0109   0.0053  -0.0052   0.0056  -0.0006   0.00   35.6
2025/09/12 07:46:34.000  -1178647.8179   5839688.9341   2271934.7134   1  17   0.0047   0.0108   0.0051  -0.0050   0.0056  -0.0035   0.00   35.7
2025/09/12 07:46:35.000  -1178647.8167   5839688.9307   2271934.7136   1  17   0.0045   0.0108   0.0023  -0.0051   0.0060  -0.0038   0.00   35.7
2025/09/12 07:46:36.000  -1178647.8196   5839688.9356   2271934.7157   1  17   0.0039   0.0108   0.0047  -0.0049   0.0058  -0.0033   0.00   35.8
2025/09/12 07:46:37.000  -1178647.8179   5839688.9267   2271934.7129   1  17   0.0043   0.0107   0.0048  -0.0057   0.0056  -0.0011   0.00   35.8
2025/09/12 07:46:38.000  -1178647.8167   5839688.9262   2271934.7128   1  17   0.0039   0.0108   0.0043  -0.0052   0.0058  -0.0028   0.00   35.9
2025/09/12 07:46:39.000  -1178647.8177   5839688.9269   2271934.7154   1  17   0.0047   0.0109   0.0044  -0.0052   0.0057  -0.0032   0.00   36.0
2025/09/12 07:46:40.000  -1178647.8192   5839688.9335   2271934.7180   1  17   0.0045   0.0110   0.0030  -0.0053   0.0061  -0.0038   1.00   36.0
2025/09/12 07:46:41.000  -1178647.8205   5839688.9270   2271934.7158   1  17   0.0044   0.0110   0.0044  -0.0053   0.0060  -0.0029   1.00   36.1
2025/09/12 07:46:42.000  -1178647.8185   5839688.9223   2271934.7130   1  17   0.0045   0.0108   0.0057  -0.0052   0.0057  -0.0033   0.00   36.2
2025/09/12 07:46:43.000  -1178647.8192   5839688.9225   2271934.7149   1  17   0.0050   0.0108   0.0042  -0.0055   0.0055  -0.0008   0.00   36.3
2025/09/12 07:46:44.000  -1178647.8184   5839688.9228   2271934.7140   1  17   0.0042   0.0109   0.0047  -0.0051   0.0056  -0.0031   0.00   36.5
2025/09/12 07:46:45.000  -1178647.8194   5839688.9227   2271934.7144   1  17   0.0038   0.0108   0.0039  -0.0051   0.0058  -0.0030   0.00   36.6
2025/09/12 07:46:46.000  -1178647.8199   5839688.9207   2271934.7155   1  17   0.0042   0.0108   0.0037  -0.0052   0.0058  -0.0036   0.00   36.7
2025/09/12 07:46:47.000  -1178647.8184   5839688.9184   2271934.7142   1  17   0.0042   0.0110   0.0048  -0.0051   0.0058  -0.0033   1.00   36.7
2025/09/12 07:46:48.000  -1178647.8177   5839688.9177   2271934.7142   1  17   0.0044   0.0109   0.0054  -0.0049   0.0056  -0.0034   0.00   36.8
2025/09/12 07:46:49.000  -1178647.8174   5839688.9123   2271934.7142   1  17   0.0043   0.0108   0.0045  -0.0052   0.0058  -0.0021   0.00   36.9
2025/09/12 07:46:50.000  -1178647.8186   5839688.9133   2271934.7153   1  17   0.0040   0.0109   0.0051  -0.0053   0.0055   0.0009   0.00   37.0
2025/09/12 07:46:51.000  -1178647.8187   5839688.9118   2271934.7137   1  17   0.0051   0.0108   0.0050  -0.0051   0.0057  -0.0030   0.00   37.1
2025/09/12 07:46:52.000  -1178647.8182   5839688.9093   2271934.7151   1  17   0.0045   0.0111   0.0043  -0.0053   0.0056  -0.0033   1.00   37.2
2025/09/12 07:46:53.000  -1178647.8173   5839688.9085   2271934.7131   1  17   0.0044   0.0108   0.0041  -0.0051   0.0058  -0.0035   0.00   37.3
2025/09/12 07:46:54.000  -1178647.8171   5839688.9039   2271934.7128   1  17   0.0051   0.0108   0.0044  -0.0052   0.0058  -0.0045   0.00   37.4
2025/09/12 07:46:55.000  -1178647.8197   5839688.9088   2271934.7146   1  17   0.0049   0.0108   0.0048  -0.0053   0.0055  -0.0033   0.00   37.4
2025/09/12 07:46:56.000  -1178647.8196   5839688.9091   2271934.7146   1  17   0.0046   0.0111   0.0044  -0.0050   0.0061  -0.0033   1.00   37.5
2025/09/12 07:46:57.000  -1178647.8184   5839688.9030   2271934.7118   1  17   0.0043   0.0108   0.0029  -0.0049   0.0059  -0.0038   0.00   37.6
2025/09/12 07:46:58.000  -1178647.8170   5839688.9049   2271934.7115   1  17   0.0045   0.0108   0.0043  -0.0052   0.0056  -0.0034   0.00   37.6
2025/09/12 07:46:59.000  -1178647.8166   5839688.9027   2271934.7117   1  17   0.0045   0.0108   0.0043  -0.0051   0.0058  -0.0034   0.00   37.6
2025/09/12 07:47:00.000  -1178647.8162   5839688.9054   2271934.7137   1  17   0.0044   0.0110   0.0050  -0.0052   0.0058  -0.0026   1.00   37.7
2025/09/12 07:47:01.000  -1178647.8179   5839688.9041   2271934.7137   1  17   0.0043   0.0108   0.0045  -0.0051   0.0056  -0.0035   0.00   37.8
2025/09/12 07:47:02.000  -1178647.8171   5839688.9008   2271934.7130   1  17   0.0042   0.0111   0.0048  -0.0053   0.0056  -0.0031   1.00   37.9
2025/09/12 07:47:03.000  -1178647.8139   5839688.8944   2271934.7109   1  17   0.0044   0.0111   0.0048  -0.0053   0.0057  -0.0032   1.00   37.9
2025/09/12 07:47:04.000  -1178647.8144   5839688.8947   2271934.7096   1  17   0.0043   0.0108   0.0049  -0.0054   0.0055  -0.0027   0.00   38.0
2025/09/12 07:47:05.000  -1178647.8134   5839688.8919   2271934.7082   1  17   0.0046   0.0109   0.0055  -0.0052   0.0057  -0.0026   0.00   38.1
2025/09/12 07:47:06.000  -1178647.8121   5839688.8893   2271934.7078   1  17   0.0044   0.0108   0.0042  -0.0052   0.0059  -0.0027   0.00   38.1
2025/09/12 07:47:07.000  -1178647.8115   5839688.8882   2271934.7095   1  17   0.0039   0.0108   0.0043  -0.0051   0.0057  -0.0029   0.00   38.2
2025/09/12 07:47:08.000  -1178647.8124   5839688.8878   2271934.7093   1  17   0.0045   0.0109   0.0037  -0.0050   0.0059  -0.0036   0.00   38.2
2025/09/12 07:47:09.000  -1178647.8121   5839688.8885   2271934.7091   1  17   0.0045   0.0108   0.0045  -0.0051   0.0058  -0.0035   0.00   38.3
2025/09/12 07:47:10.000  -1178647.8116   5839688.8886   2271934.7102   1  17   0.0040   0.0110   0.0050  -0.0052   0.0058  -0.0031   1.00   38.4
2025/09/12 07:47:11.000  -1178647.8113   5839688.8888   2271934.7095   1  17   0.0041   0.0108   0.0037  -0.0053   0.0056  -0.0035   0.00   38.5
2025/09/12 07:47:12.000  -1178647.8113   5839688.8865   2271934.7074   1  17   0.0042   0.0109   0.0053  -0.0052   0.0056  -0.0021   0.00   38.6
2025/09/12 07:47:13.000  -1178647.8106   5839688.8850   2271934.7073   1  17   0.0043   0.0108   0.0044  -0.0052   0.0058  -0.0035   0.00   38.6
2025/09/12 07:47:14.000  -1178647.8086   5839688.8793   2271934.7083   1  17   0.0044   0.0110   0.0051  -0.0054   0.0058  -0.0035   1.00   38.7
2025/09/12 07:47:15.000  -1178647.8118   5839688.8895   2271934.7102   1  17   0.0043   0.0108   0.0045  -0.0054   0.0056  -0.0030   0.00   38.8
2025/09/12 07:47:16.000  -1178647.8102   5839688.8839   2271934.7076   1  17   0.0035   0.0108   0.0041  -0.0056   0.0056  -0.0021   0.00   38.8
2025/09/12 07:47:17.000  -1178647.8108   5839688.8812   2271934.7089   1  17   0.0042   0.0109   0.0050  -0.0050   0.0056  -0.0039   0.00   38.9
2025/09/12 07:47:18.000  -1178647.8114   5839688.8863   2271934.7091   1  17   0.0043   0.0108   0.0043  -0.0053   0.0057  -0.0018   0.00   39.0
2025/09/12 07:47:19.000  -1178647.8100   5839688.8827   2271934.7075   1  17   0.0046   0.0109   0.0054  -0.0054   0.0055  -0.0027   0.00   39.0
2025/09/12 07:47:20.000  -1178647.8098   5839688.8826   2271934.7086   1  17   0.0047   0.0109   0.0045  -0.0052   0.0057  -0.0032   0.00   39.0
2025/09/12 07:47:21.000  -1178647.8083   5839688.8779   2271934.7065   1  17   0.0039   0.0109   0.0043  -0.0051   0.0057  -0.0030   0.00   39.1
2025/09/12 07:47:22.000  -1178647.8086   5839688.8842   2271934.7087   1  17   0.0050   0.0109   0.0053  -0.0051   0.0057  -0.0027   0.00   39.2
2025/09/12 07:47:23.000  -1178647.8077   5839688.8788   2271934.7082   1  17   0.0042   0.0108   0.0054  -0.0053   0.0056  -0.0032   0.00   39.2
2025/09/12 07:47:24.000  -1178647.8066   5839688.8763   2271934.7083   1  17   0.0043   0.0111   0.0041  -0.0052   0.0058  -0.0028   1.00   39.3
2025/09/12 07:47:25.000  -1178647.8083   5839688.8802   2271934.7094   1  17   0.0050   0.0109   0.0052  -0.0051   0.0054  -0.0043   0.00   39.4
2025/09/12 07:47:26.000  -1178647.8086   5839688.8822   2271934.7098   1  17   0.0043   0.0108   0.0055  -0.0053   0.0055  -0.0019   0.00   39.4
2025/09/12 07:47:27.000  -1178647.8082   5839688.8816   2271934.7109   1  17   0.0044   0.0108   0.0049  -0.0055   0.0055  -0.0025   0.00   39.5
2025/09/12 07:47:28.000  -1178647.8070   5839688.8780   2271934.7094   1  17   0.0045   0.0108   0.0049  -0.0051   0.0056  -0.0037   0.00   39.6
2025/09/12 07:47:29.000  -1178647.8060   5839688.8762   2271934.7107   1  17   0.0040   0.0109   0.0056  -0.0052   0.0057   0.0010   0.00   39.7
2025/09/12 07:47:30.000  -1178647.8069   5839688.8801   2271934.7112   1  17   0.0046   0.0109   0.0053  -0.0051   0.0057  -0.0031   0.00   39.8
2025/09/12 07:47:31.000  -1178647.8066   5839688.8772   2271934.7118   1  17   0.0043   0.0111   0.0053  -0.0053   0.0055  -0.0026   1.00   39.9
2025/09/12 07:47:32.000  -1178647.8078   5839688.8787   2271934.7113   1  17   0.0040   0.0109   0.0047  -0.0053   0.0056  -0.0011   0.00   40.0
2025/09/12 07:47:33.000  -1178647.8066   5839688.8741   2271934.7097   1  17   0.0039   0.0108   0.0050  -0.0052   0.0058  -0.0032   0.00   40.0
2025/09/12 07:47:34.000  -1178647.8077   5839688.8737   2271934.7113   1  17   0.0041   0.0109   0.0051  -0.0051   0.0056  -0.0033   0.00   40.2
2025/09/12 07:47:35.000  -1178647.8055   5839688.8731   2271934.7129   1  17   0.0045   0.0111   0.0055  -0.0052   0.0057  -0.0022   1.00   40.3
2025/09/12 07:47:36.000  -1178647.8071   5839688.8738   2271934.7111   1  17   0.0041   0.0109   0.0041  -0.0051   0.0057  -0.0025   0.00   40.4
2025/09/12 07:47:37.000  -1178647.8063   5839688.8735   2271934.7112   1  17   0.0042   0.0108   0.0051  -0.0054   0.0054  -0.0023   0.00   40.5
2025/09/12 07:47:38.000  -1178647.8063   5839688.8722   2271934.7116   1  17   0.0040   0.0109   0.0036  -0.0050   0.0058  -0.0038   0.00   40.6
2025/09/12 07:47:39.000  -1178647.8059   5839688.8696   2271934.7109   1  17   0.0045   0.0108   0.0038  -0.0049   0.0059  -0.0038   0.00   40.6
2025/09/12 07:47:40.000  -1178647.8063   5839688.8743   2271934.7140   1  17   0.0041   0.0108   0.0048  -0.0053   0.0056  -0.0024   0.00   40.7
2025/09/12 07:47:41.000  -1178647.8071   5839688.8780   2271934.7129   1  17   0.0048   0.0109   0.0057  -0.0053   0.0057  -0.0020   0.00   40.8
2025/09/12 07:47:42.000  -1178647.8069   5839688.8741   2271934.7122   1  17   0.0046   0.0109   0.0045  -0.0052   0.0057  -0.0026   0.00   40.9
2025/09/12 07:47:43.000  -1178647.8058   5839688.8670   2271934.7101   1  17   0.0045   0.0110   0.0058  -0.0052   0.0053  -0.0031   0.00   41.0
2025/09/12 07:47:44.000  -1178647.8057   5839688.8707   2271934.7111   1  17   0.0046   0.0108   0.0034  -0.0050   0.0058  -0.0038   0.00   41.1
2025/09/12 07:47:45.000  -1178647.8068   5839688.8694   2271934.7110   1  17   0.0039   0.0109   0.0047  -0.0049   0.0058  -0.0031   0.00   41.1
2025/09/12 07:47:46.000  -1178647.8081   5839688.8699   2271934.7124   1  17   0.0040   0.0109   0.0044  -0.0054   0.0057  -0.0030   0.00   41.2
2025/09/12 07:47:47.000  -1178647.8099   5839688.8717   2271934.7120   1  17   0.0042   0.0109   0.0051  -0.0050   0.0057  -0.0026   0.00   41.2
2025/09/12 07:47:48.000  -1178647.8071   5839688.8703   2271934.7122   1  17   0.0043   0.0108   0.0046  -0.0054   0.0059  -0.0019   0.00   41.3
2025/09/12 07:47:49.000  -1178647.8075   5839688.8715   2271934.7111   1  17   0.0045   0.0109   0.0040  -0.0053   0.0057  -0.0023   0.00   41.4
2025/09/12 07:47:50.000  -1178647.8082   5839688.8738   2271934.7124   1  17   0.0042   0.0109   0.0044  -0.0050   0.0057  -0.0033   0.00   41.4
2025/09/12 07:47:51.000  -1178647.8068   5839688.8742   2271934.7144   1  17   0.0036   0.0111   0.0043  -0.0054   0.0058  -0.0029   1.00   41.5
2025/09/12 07:47:52.000  -1178647.8075   5839688.8689   2271934.7135   1  17   0.0048   0.0109   0.0055  -0.0053   0.0056  -0.0025   0.00   41.5
2025/09/12 07:47:53.000  -1178647.8063   5839688.8703   2271934.7113   1  17   0.0043   0.0109   0.0050  -0.0052   0.0056  -0.0019   0.00   41.6
2025/09/12 07:47:54.000  -1178647.8088   5839688.8684   2271934.7120   1  17   0.0046   0.0109   0.0052  -0.0051   0.0058  -0.0027   0.00   41.7
2025/09/12 07:47:55.000  -1178647.8092   5839688.8729   2271934.7148   1  17   0.0046   0.0109   0.0046  -0.0053   0.0057  -0.0035   0.00   41.7
2025/09/12 07:47:56.000  -1178647.8069   5839688.8676   2271934.7121   1  17   0.0041   0.0109   0.0041  -0.0051   0.0058  -0.0031   0.00   41.8
2025/09/12 07:47:57.000  -1178647.8084   5839688.8682   2271934.7125   1  17   0.0045   0.0109   0.0057  -0.0052   0.0057  -0.0026   0.00   41.9
2025/09/12 07:47:58.000  -1178647.8077   5839688.8662   2271934.7133   1  17   0.0045   0.0109   0.0039  -0.0051   0.0056  -0.0036   0.00   42.0
2025/09/12 07:47:59.000  -1178647.8069   5839688.8658   2271934.7142   1  17   0.0046   0.0109   0.0058  -0.0052   0.0057  -0.0032   0.00   42.1
2025/09/12 07:48:00.000  -1178647.8085   5839688.8665   2271934.7153   1  17   0.0039   0.0109   0.0048  -0.0051   0.0057  -0.0032   0.00   42.2
2025/09/12 07:48:01.000  -1178647.8074   5839688.8623   2271934.7148   1  17   0.0046   0.0111   0.0048  -0.0054   0.0056  -0.0028   1.00   42.2
2025/09/12 07:48:02.000  -1178647.8086   5839688.8639   2271934.7154   1  17   0.0043   0.0108   0.0041  -0.0053   0.0058  -0.0039   0.00   42.3
2025/09/12 07:48:03.000  -1178647.8065   5839688.8599   2271934.7136   1  17   0.0041   0.0109   0.0056  -0.0053   0.0055  -0.0025   0.00   42.4
2025/09/12 07:48:04.000  -1178647.8077   5839688.8614   2271934.7144   1  17   0.0048   0.0109   0.0043  -0.0051   0.0058  -0.0023   0.00   42.4
2025/09/12 07:48:05.000  -1178647.8091   5839688.8615   2271934.7163   1  17   0.0040   0.0109   0.0050  -0.0053   0.0059  -0.0028   0.00   42.5
2025/09/12 07:48:06.000  -1178647.8084   5839688.8594   2271934.7139   1  17   0.0040   0.0108   0.0046  -0.0053   0.0057  -0.0031   0.00   42.6
2025/09/12 07:48:07.000  -1178647.8094   5839688.8591   2271934.7156   1  17   0.0043   0.0109   0.0051  -0.0051   0.0057  -0.0029   0.00   42.7
2025/09/12 07:48:08.000  -1178647.8096   5839688.8621   2271934.7185   1  17   0.0047   0.0109   0.0051  -0.0053   0.0056  -0.0027   0.00   42.9
2025/09/12 07:48:09.000  -1178647.8090   5839688.8609   2271934.7176   1  17   0.0043   0.0109   0.0052  -0.0054   0.0055  -0.0024   0.00   42.9
2025/09/12 07:48:10.000  -1178647.8067   5839688.8606   2271934.7173   1  17   0.0036   0.0111   0.0045  -0.0052   0.0059  -0.0035   1.00   43.0
2025/09/12 07:48:11.000  -1178647.8102   5839688.8623   2271934.7204   1  17   0.0049   0.0111   0.0053  -0.0054   0.0057  -0.0031   1.00   43.1
2025/09/12 07:48:12.000  -1178647.8084   5839688.8584   2271934.7186   1  17   0.0049   0.0108   0.0042  -0.0052   0.0058  -0.0036   0.00   43.2
2025/09/12 07:48:13.000  -1178647.8097   5839688.8589   2271934.7197   1  17   0.0044   0.0109   0.0037  -0.0049   0.0060  -0.0042   0.00   43.3
2025/09/12 07:48:14.000  -1178647.8086   5839688.8582   2271934.7186   1  17   0.0042   0.0109   0.0045  -0.0053   0.0057  -0.0032   0.00   43.4
2025/09/12 07:48:15.000  -1178647.8084   5839688.8545   2271934.7184   1  17   0.0043   0.0109   0.0056  -0.0051   0.0057  -0.0034   0.00   43.5
2025/09/12 07:48:16.000  -1178647.8103   5839688.8571   2271934.7201   1  17   0.0042   0.0109   0.0045  -0.0052   0.0059  -0.0032   0.00   43.6
2025/09/12 07:48:17.000  -1178647.8084   5839688.8564   2271934.7206   1  17   0.0038   0.0109   0.0051  -0.0050   0.0058  -0.0033   0.00   43.7
2025/09/12 07:48:18.000  -1178647.8096   5839688.8541   2271934.7199   1  17   0.0047   0.0109   0.0050  -0.0054   0.0058  -0.0028   0.00   43.8
2025/09/12 07:48:19.000  -1178647.8080   5839688.8529   2271934.7202   1  17   0.0044   0.0108   0.0035  -0.0052   0.0060  -0.0038   0.00   43.9
2025/09/12 07:48:20.000  -1178647.8081   5839688.8486   2271934.7217   1  17   0.0043   0.0112   0.0055  -0.0054   0.0057  -0.0023   1.00   43.9
2025/09/12 07:48:21.000  -1178647.8099   5839688.8537   2271934.7212   1  17   0.0042   0.0108   0.0037  -0.0055   0.0059  -0.0025   0.00   44.1
2025/09/12 07:48:22.000  -1178647.8088   5839688.8524   2271934.7205   1  17   0.0042   0.0109   0.0051  -0.0053   0.0056  -0.0026   0.00   44.1
2025/09/12 07:48:23.000  -1178647.8107   5839688.8579   2271934.7238   1  17   0.0040   0.0109   0.0049  -0.0052   0.0056  -0.0025   0.00   44.2
2025/09/12 07:48:24.000  -1178647.8088   5839688.8535   2271934.7235   1  17   0.0043   0.0111   0.0040  -0.0052   0.0060  -0.0034   1.00   44.3
2025/09/12 07:48:25.000  -1178647.8098   5839688.8523   2271934.7242   1  17   0.0038   0.0109   0.0052  -0.0052   0.0058  -0.0021   0.00   44.3
2025/09/12 07:48:26.000  -1178647.8108   5839688.8552   2271934.7248   1  17   0.0044   0.0108   0.0035  -0.0049   0.0061  -0.0042   0.00   44.4
2025/09/12 07:48:27.000  -1178647.8108   5839688.8548   2271934.7241   1  17   0.0046   0.0109   0.0053  -0.0052   0.0057  -0.0020   0.00   44.4
2025/09/12 07:48:28.000  -1178647.8115   5839688.8587   2271934.7253   1  17   0.0041   0.0110   0.0048  -0.0050   0.0057  -0.0032   0.00   44.5
2025/09/12 07:48:29.000  -1178647.8115   5839688.8590   2271934.7263   1  17   0.0044   0.0109   0.0051  -0.0053   0.0057  -0.0028   0.00   44.6
2025/09/12 07:48:30.000  -1178647.8128   5839688.8624   2271934.7291   1  17   0.0050   0.0109   0.0047  -0.0052   0.0057  -0.0037   0.00   44.7
2025/09/12 07:48:31.000  -1178647.8126   5839688.8574   2271934.7278   1  17   0.0045   0.0109   0.0048  -0.0051   0.0057  -0.0037   0.00   44.8
2025/09/12 07:48:32.000  -1178647.8112   5839688.8555   2271934.7283   1  17   0.0046   0.0112   0.0055  -0.0054   0.0058  -0.0035   1.00   44.9
2025/09/12 07:48:33.000  -1178647.8143   5839688.8603   2271934.7282   1  17   0.0041   0.0109   0.0043  -0.0051   0.0058  -0.0032   0.00   45.0
2025/09/12 07:48:34.000  -1178647.8136   5839688.8598   2271934.7290   1  17   0.0045   0.0109   0.0052  -0.0053   0.0055  -0.0028   0.00   45.1
2025/09/12 07:48:35.000  -1178647.8139   5839688.8607   2271934.7308   1  17   0.0045   0.0111   0.0051  -0.0054   0.0059  -0.0022   1.00   45.2
2025/09/12 07:48:36.000  -1178647.8149   5839688.8625   2271934.7306   1  17   0.0037   0.0109   0.0049  -0.0052   0.0058  -0.0032   0.00   45.2
2025/09/12 07:48:37.000  -1178647.8156   5839688.8647   2271934.7300   1  17   0.0047   0.0109   0.0047  -0.0054   0.0057  -0.0024   0.00   45.3
2025/09/12 07:48:38.000  -1178647.8142   5839688.8603   2271934.7291   1  17   0.0045   0.0109   0.0049  -0.0051   0.0055  -0.0029   0.00   45.4
2025/09/12 07:48:39.000  -1178647.8150   5839688.8662   2271934.7325   1  17   0.0041   0.0109   0.0029  -0.0052   0.0058  -0.0035   0.00   45.5
2025/09/12 07:48:40.000  -1178647.8154   5839688.8646   2271934.7313   1  17   0.0044   0.0109   0.0033  -0.0050   0.0057  -0.0038   0.00   45.6
2025/09/12 07:48:41.000  -1178647.8165   5839688.8671   2271934.7334   1  17   0.0041   0.0109   0.0035  -0.0053   0.0059  -0.0031   0.00   45.7
2025/09/12 07:48:42.000  -1178647.8154   5839688.8684   2271934.7337   1  17   0.0042   0.0109   0.0043  -0.0050   0.0060  -0.0032   0.00   45.8
2025/09/12 07:48:43.000  -1178647.8162   5839688.8691   2271934.7362   1  17   0.0045   0.0111   0.0041  -0.0052   0.0058  -0.0040   1.00   45.9
2025/09/12 07:48:44.000  -1178647.8161   5839688.8696   2271934.7361   1  17   0.0047   0.0109   0.0038  -0.0054   0.0060  -0.0027   0.00   46.0
2025/09/12 07:48:45.000  -1178647.8154   5839688.8679   2271934.7352   1  17   0.0039   0.0111   0.0046  -0.0054   0.0059  -0.0030   1.00   46.0
2025/09/12 07:48:46.000  -1178647.8158   5839688.8700   2271934.7354   1  17   0.0046   0.0108   0.0042  -0.0055   0.0057  -0.0021   0.00   46.1
2025/09/12 07:48:47.000  -1178647.8151   5839688.8723   2271934.7364   1  17   0.0043   0.0111   0.0029  -0.0052   0.0062  -0.0026   1.00   46.2
2025/09/12 07:48:48.000  -1178647.8176   5839688.8740   2271934.7372   1  17   0.0049   0.0109   0.0055  -0.0053   0.0055  -0.0037   0.00   46.4
2025/09/12 07:48:49.000  -1178647.8165   5839688.8717   2271934.7376   1  17   0.0043   0.0109   0.0048  -0.0052   0.0056  -0.0036   0.00   46.5
2025/09/12 07:48:50.000  -1178647.8162   5839688.8695   2271934.7390   1  17   0.0045   0.0112   0.0052  -0.0053   0.0057  -0.0034   1.00   46.6
2025/09/12 07:48:51.000  -1178647.8193   5839688.8797   2271934.7421   1  17   0.0043   0.0109   0.0047  -0.0051   0.0058  -0.0033   0.00   46.7
2025/09/12 07:48:52.000  -1178647.8158   5839688.8708   2271934.7391   1  17   0.0046   0.0109   0.0045  -0.0051   0.0059  -0.0038   0.00   46.8
2025/09/12 07:48:53.000  -1178647.8185   5839688.8754   2271934.7409   1  17   0.0048   0.0112   0.0059  -0.0055   0.0056  -0.0019   1.00   46.8
2025/09/12 07:48:54.000  -1178647.8168   5839688.8747   2271934.7390   1  17   0.0043   0.0109   0.0039  -0.0053   0.0059  -0.0034   0.00   46.9
2025/09/12 07:48:55.000  -1178647.8185   5839688.8788   2271934.7422   1  17   0.0045   0.0109   0.0040  -0.0054   0.0058  -0.0028   0.00   47.0
2025/09/12 07:48:56.000  -1178647.8176   5839688.8739   2271934.7399   1  17   0.0048   0.0109   0.0052  -0.0051   0.0059  -0.0030   0.00   47.1
2025/09/12 07:48:57.000  -1178647.8192   5839688.8805   2271934.7428   1  17   0.0043   0.0109   0.0049  -0.0052   0.0056  -0.0034   0.00   47.1
2025/09/12 07:48:58.000  -1178647.8179   5839688.8779   2271934.7412   1  17   0.0043   0.0109   0.0049  -0.0050   0.0058  -0.0040   0.00   47.2
2025/09/12 07:48:59.000  -1178647.8193   5839688.8839   2271934.7432   1  17   0.0035   0.0109   0.0041  -0.0052   0.0059  -0.0033   0.00   47.2
2025/09/12 07:49:00.000  -1178647.8176   5839688.8792   2271934.7426   1  17   0.0041   0.0110   0.0058  -0.0051   0.0054  -0.0037   0.00   47.4
2025/09/12 07:49:01.000  -1178647.8182   5839688.8785   2271934.7449   1  17   0.0045   0.0111   0.0047  -0.0053   0.0059  -0.0037   1.00   47.5
2025/09/12 07:49:02.000  -1178647.8176   5839688.8817   2271934.7446   1  17   0.0040   0.0109   0.0046  -0.0052   0.0059  -0.0030   0.00   47.6
2025/09/12 07:49:03.000  -1178647.8171   5839688.8822   2271934.7430   1  17   0.0041   0.0108   0.0038  -0.0053   0.0058  -0.0039   0.00   47.6
2025/09/12 07:49:04.000  -1178647.8193   5839688.8875   2271934.7461   1  17   0.0046   0.0110   0.0052  -0.0052   0.0055  -0.0029   0.00   47.7
2025/09/12 07:49:05.000  -1178647.8213   5839688.8900   2271934.7483   1  17   0.0042   0.0111   0.0049  -0.0054   0.0058  -0.0031   1.00   47.9
2025/09/12 07:49:06.000  -1178647.8191   5839688.8863   2271934.7446   1  17   0.0046   0.0109   0.0053  -0.0052   0.0058  -0.0019   0.00   47.9
2025/09/12 07:49:07.000  -1178647.8169   5839688.8828   2271934.7441   1  17   0.0040   0.0112   0.0053  -0.0055   0.0058  -0.0025   1.00   48.0
2025/09/12 07:49:08.000  -1178647.8171   5839688.8830   2271934.7453   1  17   0.0048   0.0110   0.0043  -0.0051   0.0059  -0.0024   0.00   48.1
2025/09/12 07:49:09.000  -1178647.8178   5839688.8887   2271934.7464   1  17   0.0040   0.0109   0.0040  -0.0053   0.0061  -0.0031   0.00   48.2
2025/09/12 07:49:10.000  -1178647.8164   5839688.8843   2271934.7447   1  17   0.0041   0.0109   0.0029  -0.0050   0.0062  -0.0031   0.00   48.3
2025/09/12 07:49:11.000  -1178647.8183   5839688.8880   2271934.7466   1  17   0.0046   0.0109   0.0048  -0.0053   0.0057  -0.0036   0.00   48.3
2025/09/12 07:49:12.000  -1178647.8188   5839688.8908   2271934.7501   1  17   0.0047   0.0111   0.0050  -0.0056   0.0058  -0.0027   1.00   48.4
2025/09/12 07:49:13.000  -1178647.8173   5839688.8897   2271934.7470   1  17   0.0039   0.0109   0.0043  -0.0053   0.0058  -0.0028   0.00   48.5
2025/09/12 07:49:14.000  -1178647.8176   5839688.8921   2271934.7483   1  17   0.0045   0.0109   0.0050  -0.0051   0.0059  -0.0033   0.00   48.6
2025/09/12 07:49:15.000  -1178647.8187   5839688.8942   2271934.7511   1  17   0.0043   0.0109   0.0055  -0.0052   0.0057  -0.0033   0.00   48.6
2025/09/12 07:49:16.000  -1178647.8189   5839688.8956   2271934.7512   1  17   0.0046   0.0111   0.0048  -0.0055   0.0060  -0.0031   1.00   48.7
2025/09/12 07:49:17.000  -1178647.8193   5839688.8990   2271934.7504   1  17   0.0044   0.0109   0.0049  -0.0053   0.0056  -0.0022   0.00   48.9
2025/09/12 07:49:18.000  -1178647.8190   5839688.8994   2271934.7504   1  17   0.0041   0.0110   0.0050  -0.0055   0.0055  -0.0020   0.00   49.0
2025/09/12 07:49:19.000  -1178647.8167   5839688.8934   2271934.7492   1  17   0.0046   0.0112   0.0057  -0.0053   0.0058  -0.0031   1.00   49.0
2025/09/12 07:49:20.000  -1178647.8185   5839688.9002   2271934.7512   1  17   0.0048   0.0112   0.0047  -0.0054   0.0057  -0.0035   1.00   49.1
2025/09/12 07:49:21.000  -1178647.8179   5839688.8992   2271934.7508   1  17   0.0041   0.0111   0.0052  -0.0052   0.0057  -0.0041   1.00   49.2
2025/09/12 07:49:22.000  -1178647.8169   5839688.9011   2271934.7509   1  17   0.0048   0.0110   0.0055  -0.0053   0.0054  -0.0031   0.00   49.3
2025/09/12 07:49:23.000  -1178647.8164   5839688.8990   2271934.7503   1  17   0.0043   0.0110   0.0040  -0.0051   0.0058  -0.0039   0.00   49.4
2025/09/12 07:49:24.000  -1178647.8178   5839688.8993   2271934.7508   1  17   0.0044   0.0109   0.0046  -0.0053   0.0057  -0.0024   0.00   49.4
2025/09/12 07:49:25.000  -1178647.8170   5839688.9008   2271934.7517   1  17   0.0041   0.0109   0.0040  -0.0052   0.0059  -0.0033   0.00   49.5
2025/09/12 07:49:26.000  -1178647.8172   5839688.8996   2271934.7494   1  17   0.0043   0.0109   0.0045  -0.0051   0.0058  -0.0034   0.00   49.6
2025/09/12 07:49:27.000  -1178647.8166   5839688.9011   2271934.7521   1  17   0.0045   0.0109   0.0051  -0.0054   0.0056  -0.0038   0.00   49.7
2025/09/12 07:49:28.000  -1178647.8148   5839688.8974   2271934.7516   1  17   0.0046   0.0112   0.0045  -0.0054   0.0058  -0.0024   1.00   49.7
2025/09/12 07:49:29.000  -1178647.8171   5839688.9041   2271934.7527   1  17   0.0045   0.0110   0.0045  -0.0051   0.0055  -0.0033   0.00   49.8
2025/09/12 07:49:30.000  -1178647.8171   5839688.9037   2271934.7542   1  17   0.0046   0.0112   0.0050  -0.0054   0.0058  -0.0026   1.00   49.9
2025/09/12 07:49:31.000  -1178647.8167   5839688.9061   2271934.7526   1  17   0.0042   0.0110   0.0048  -0.0052   0.0056  -0.0029   0.00   50.0
2025/09/12 07:49:32.000  -1178647.8170   5839688.9055   2271934.7526   1  17   0.0044   0.0110   0.0046  -0.0050   0.0056  -0.0040   0.00   50.0
2025/09/12 07:49:33.000  -1178647.8179   5839688.9056   2271934.7536   1  17   0.0044   0.0109   0.0048  -0.0053   0.0057  -0.0037   0.00   50.1
2025/09/12 07:49:34.000  -1178647.8168   5839688.9070   2271934.7535   1  17   0.0044   0.0110   0.0049  -0.0052   0.0058  -0.0036   0.00   50.2
2025/09/12 07:49:35.000  -1178647.8177   5839688.9061   2271934.7538   1  17   0.0048   0.0112   0.0052  -0.0057   0.0057  -0.0027   1.00   50.2
2025/09/12 07:49:36.000  -1178647.8174   5839688.9100   2271934.7541   1  17   0.0042   0.0109   0.0054  -0.0055   0.0057  -0.0033   0.00   50.3
2025/09/12 07:49:37.000  -1178647.8162   5839688.9058   2271934.7531   1  17   0.0046   0.0109   0.0047  -0.0052   0.0058  -0.0038   0.00   50.3
2025/09/12 07:49:38.000  -1178647.8192   5839688.9133   2271934.7551   1  17   0.0045   0.0110   0.0045  -0.0053   0.0057  -0.0019   0.00   50.4
2025/09/12 07:49:39.000  -1178647.8185   5839688.9127   2271934.7537   1  17   0.0046   0.0109   0.0047  -0.0051   0.0058  -0.0033   0.00   50.4
2025/09/12 07:49:40.000  -1178647.8178   5839688.9103   2271934.7539   1  17   0.0038   0.0111   0.0041  -0.0057   0.0060  -0.0027   1.00   50.5
2025/09/12 07:49:41.000  -1178647.8181   5839688.9137   2271934.7541   1  17   0.0045   0.0109   0.0051  -0.0053   0.0057  -0.0015   0.00   50.6
2025/09/12 07:49:42.000  -1178647.8173   5839688.9127   2271934.7534   1  17   0.0045   0.0109   0.0051  -0.0057   0.0057  -0.0017   0.00   50.7
2025/09/12 07:49:43.000  -1178647.8182   5839688.9102   2271934.7550   1  17   0.0046   0.0111   0.0047  -0.0054   0.0059  -0.0035   1.00   50.7
2025/09/12 07:49:44.000  -1178647.8155   5839688.9143   2271934.7557   1  17   0.0046   0.0112   0.0049  -0.0053   0.0058  -0.0037   1.00   50.7
2025/09/12 07:49:45.000  -1178647.8179   5839688.9184   2271934.7559   1  17   0.0043   0.0110   0.0039  -0.0048   0.0059  -0.0041   0.00   50.8
2025/09/12 07:49:46.000  -1178647.8192   5839688.9200   2271934.7561   1  17   0.0041   0.0109   0.0048  -0.0053   0.0057  -0.0039   0.00   50.9
2025/09/12 07:49:47.000  -1178647.8154   5839688.9151   2271934.7553   1  17   0.0046   0.0111   0.0038  -0.0054   0.0060  -0.0039   1.00   51.0
2025/09/12 07:49:48.000  -1178647.8190   5839688.9229   2271934.7563   1  17   0.0049   0.0110   0.0042  -0.0052   0.0057  -0.0036   0.00   51.1
2025/09/12 07:49:49.000  -1178647.8187   5839688.9224   2271934.7563   1  17   0.0045   0.0112   0.0046  -0.0055   0.0059  -0.0036   1.00   51.1
2025/09/12 07:49:50.000  -1178647.8176   5839688.9184   2271934.7576   1  17   0.0046   0.0112   0.0048  -0.0051   0.0060  -0.0038   1.00   51.2
2025/09/12 07:49:51.000  -1178647.8183   5839688.9215   2271934.7562   1  17   0.0038   0.0112   0.0045  -0.0054   0.0060  -0.0038   1.00   51.2
2025/09/12 07:49:52.000  -1178647.8174   5839688.9185   2271934.7563   1  17   0.0045   0.0109   0.0048  -0.0054   0.0056  -0.0035   0.00   51.3
2025/09/12 07:49:53.000  -1178647.8193   5839688.9282   2271934.7582   1  17   0.0045   0.0110   0.0051  -0.0053   0.0058  -0.0028   0.00   51.4
2025/09/12 07:49:54.000  -1178647.8182   5839688.9288   2271934.7585   1  17   0.0046   0.0110   0.0050  -0.0054   0.0055  -0.0025   0.00   51.5
2025/09/12 07:49:55.000  -1178647.8173   5839688.9244   2271934.7567   1  17   0.0036   0.0109   0.0036  -0.0054   0.0061  -0.0032   0.00   51.5
2025/09/12 07:49:56.000  -1178647.8168   5839688.9287   2271934.7576   1  17   0.0045   0.0110   0.0036  -0.0052   0.0058  -0.0032   0.00   51.6
2025/09/12 07:49:57.000  -1178647.8178   5839688.9290   2271934.7579   1  17   0.0042   0.0109   0.0052  -0.0051   0.0059  -0.0033   0.00   51.6
2025/09/12 07:49:58.000  -1178647.8191   5839688.9325   2271934.7588   1  17   0.0043   0.0109   0.0048  -0.0054   0.0058  -0.0029   0.00   51.7
2025/09/12 07:49:59.000  -1178647.8185   5839688.9328   2271934.7595   1  17   0.0044   0.0110   0.0039  -0.0049   0.0060  -0.0043   0.00   51.7
2025/09/12 07:50:00.000  -1178647.8193   5839688.9361   2271934.7603   1  17   0.0044   0.0109   0.0044  -0.0051   0.0059  -0.0035   0.00   51.8
2025/09/12 07:50:01.000  -1178647.8176   5839688.9327   2271934.7614   1  17   0.0044   0.0111   0.0045  -0.0054   0.0060  -0.0039   1.00   52.0
2025/09/12 07:50:02.000  -1178647.8187   5839688.9414   2271934.7597   1  17   0.0041   0.0109   0.0042  -0.0052   0.0060  -0.0032   0.00   52.1
2025/09/12 07:50:03.000  -1178647.8177   5839688.9430   2271934.7616   1  17   0.0045   0.0109   0.0050  -0.0054   0.0056  -0.0034   0.00   52.2
2025/09/12 07:50:04.000  -1178647.8168   5839688.9413   2271934.7599   1  17   0.0041   0.0110   0.0035  -0.0053   0.0057  -0.0033   0.00   52.4
2025/09/12 07:50:05.000  -1178647.8163   5839688.9406   2271934.7595   1  17   0.0044   0.0112   0.0048  -0.0053   0.0059  -0.0033   1.00   52.4
2025/09/12 07:50:06.000  -1178647.8151   5839688.9406   2271934.7610   1  17   0.0042   0.0112   0.0051  -0.0053   0.0059  -0.0035   1.00   52.5
2025/09/12 07:50:07.000  -1178647.8161   5839688.9425   2271934.7582   1  17   0.0050   0.0110   0.0046  -0.0052   0.0058  -0.0034   0.00   52.6
2025/09/12 07:50:08.000  -1178647.8159   5839688.9436   2271934.7606   1  17   0.0047   0.0112   0.0043  -0.0053   0.0060  -0.0034   1.00   52.7
2025/09/12 07:50:09.000  -1178647.8195   5839688.9520   2271934.7605   1  17   0.0042   0.0110   0.0040  -0.0051   0.0059  -0.0038   0.00   52.8
2025/09/12 07:50:10.000  -1178647.8157   5839688.9476   2271934.7599   1  17   0.0043   0.0111   0.0046  -0.0056   0.0060  -0.0032   1.00   53.0
2025/09/12 07:50:11.000  -1178647.8169   5839688.9553   2271934.7592   1  17   0.0043   0.0109   0.0039  -0.0052   0.0059  -0.0038   0.00   53.0
2025/09/12 07:50:12.000  -1178647.8178   5839688.9525   2271934.7591   1  17   0.0042   0.0109   0.0044  -0.0054   0.0059  -0.0034   0.00   53.1
2025/09/12 07:50:13.000  -1178647.8170   5839688.9535   2271934.7590   1  17   0.0041   0.0110   0.0050  -0.0053   0.0056  -0.0034   0.00   53.2
2025/09/12 07:50:14.000  -1178647.8169   5839688.9583   2271934.7600   1  17   0.0043   0.0110   0.0049  -0.0053   0.0056  -0.0024   0.00   53.3
2025/09/12 07:50:15.000  -1178647.8180   5839688.9581   2271934.7597   1  17   0.0044   0.0109   0.0036  -0.0053   0.0060  -0.0033   0.00   53.4
2025/09/12 07:50:16.000  -1178647.8154   5839688.9570   2271934.7580   1  17   0.0045   0.0109   0.0048  -0.0054   0.0057  -0.0028   0.00   53.5
2025/09/12 07:50:17.000  -1178647.8158   5839688.9589   2271934.7594   1  17   0.0048   0.0112   0.0050  -0.0054   0.0060  -0.0031   1.00   53.5
2025/09/12 07:50:18.000  -1178647.8166   5839688.9630   2271934.7588   1  17   0.0039   0.0110   0.0039  -0.0052   0.0059  -0.0034   0.00   53.7
2025/09/12 07:50:19.000  -1178647.8166   5839688.9639   2271934.7588   1  17   0.0044   0.0110   0.0048  -0.0051   0.0061  -0.0031   0.00   53.9
2025/09/12 07:50:20.000  -1178647.8178   5839688.9655   2271934.7615   1  17   0.0047   0.0112   0.0040  -0.0054   0.0058  -0.0038   1.00   54.0
2025/09/12 07:50:21.000  -1178647.8173   5839688.9706   2271934.7584   1  17   0.0041   0.0109   0.0047  -0.0053   0.0059  -0.0033   0.00   54.1
2025/09/12 07:50:22.000  -1178647.8170   5839688.9717   2271934.7583   1  17   0.0046   0.0109   0.0044  -0.0053   0.0057  -0.0033   0.00   54.3
2025/09/12 07:50:23.000  -1178647.8173   5839688.9706   2271934.7611   1  17   0.0044   0.0112   0.0043  -0.0053   0.0060  -0.0029   1.00   54.4
2025/09/12 07:50:24.000  -1178647.8172   5839688.9766   2271934.7597   1  17   0.0040   0.0109   0.0037  -0.0052   0.0061  -0.0040   0.00   54.5
2025/09/12 07:50:25.000  -1178647.8166   5839688.9775   2271934.7592   1  17   0.0042   0.0109   0.0041  -0.0052   0.0062  -0.0040   0.00   54.6
2025/09/12 07:50:26.000  -1178647.8183   5839688.9793   2271934.7583   1  17   0.0047   0.0109   0.0040  -0.0054   0.0059  -0.0036   0.00   54.8
2025/09/12 07:50:27.000  -1178647.8176   5839688.9781   2271934.7592   1  17   0.0043   0.0109   0.0043  -0.0054   0.0058  -0.0031   0.00   54.9
2025/09/12 07:50:28.000  -1178647.8174   5839688.9786   2271934.7589   1  17   0.0047   0.0109   0.0051  -0.0054   0.0057  -0.0028   0.00   55.1
